{
"type": "FeatureCollection",
"features": [
{ "type": "Feature", "properties": { "comment": null, "contact:phone": null, "description": null, "name": "Людмила", "name:en": "Ludmila", "name:ru": null, "opening_hours": "Mo-Fr 8:00-19:00; Su 9:00-18:00", "phone": null, "shop": "hairdresser", "source": null }, "geometry": { "type": "Point", "coordinates": [ 131.893891, 43.114316 ] } },
{ "type": "Feature", "properties": { "comment": null, "contact:phone": null, "description": null, "name": "Вереск", "name:en": "Veresk", "name:ru": "Вереск", "opening_hours": null, "phone": null, "shop": "hairdresser", "source": null }, "geometry": { "type": "Point", "coordinates": [ 131.885546, 43.118389 ] } },
{ "type": "Feature", "properties": { "comment": null, "contact:phone": null, "description": null, "name": null, "name:en": null, "name:ru": null, "opening_hours": null, "phone": null, "shop": "hairdresser", "source": null }, "geometry": { "type": "Point", "coordinates": [ 131.955241, 43.125181 ] } },
{ "type": "Feature", "properties": { "comment": null, "contact:phone": null, "description": null, "name": "Стелла", "name:en": null, "name:ru": null, "opening_hours": null, "phone": null, "shop": "hairdresser", "source": "photography" }, "geometry": { "type": "Point", "coordinates": [ 131.945055, 43.112369 ] } },
{ "type": "Feature", "properties": { "comment": null, "contact:phone": null, "description": null, "name": "Камильфо", "name:en": "Kamilfo", "name:ru": "Камильфо", "opening_hours": null, "phone": null, "shop": "hairdresser", "source": "photograph" }, "geometry": { "type": "Point", "coordinates": [ 131.926067, 43.13291 ] } },
{ "type": "Feature", "properties": { "comment": null, "contact:phone": null, "description": null, "name": "Фея", "name:en": "Fairy", "name:ru": null, "opening_hours": null, "phone": null, "shop": "hairdresser", "source": "image" }, "geometry": { "type": "Point", "coordinates": [ 131.938404, 43.106065 ] } },
{ "type": "Feature", "properties": { "comment": null, "contact:phone": null, "description": null, "name": "Василиса", "name:en": "Vasilisa", "name:ru": null, "opening_hours": null, "phone": null, "shop": "hairdresser", "source": "image" }, "geometry": { "type": "Point", "coordinates": [ 131.939725, 43.111347 ] } },
{ "type": "Feature", "properties": { "comment": null, "contact:phone": null, "description": null, "name": null, "name:en": null, "name:ru": null, "opening_hours": null, "phone": null, "shop": "hairdresser", "source": "image" }, "geometry": { "type": "Point", "coordinates": [ 131.931024, 43.111959 ] } },
{ "type": "Feature", "properties": { "comment": null, "contact:phone": null, "description": null, "name": "Розовый фламинго", "name:en": "Pink Flamingo", "name:ru": null, "opening_hours": null, "phone": null, "shop": "hairdresser", "source": "image" }, "geometry": { "type": "Point", "coordinates": [ 131.927336, 43.112569 ] } },
{ "type": "Feature", "properties": { "comment": null, "contact:phone": null, "description": null, "name": "Жемчужинка", "name:en": "Pearl", "name:ru": null, "opening_hours": null, "phone": null, "shop": "hairdresser", "source": "image" }, "geometry": { "type": "Point", "coordinates": [ 131.913634, 43.114603 ] } },
{ "type": "Feature", "properties": { "comment": null, "contact:phone": null, "description": null, "name": "Алея", "name:en": "Aleya", "name:ru": null, "opening_hours": "Mo-Sa 09:00-20:00; Su 09:00-18:00", "phone": null, "shop": "hairdresser", "source": "image" }, "geometry": { "type": "Point", "coordinates": [ 131.925852, 43.168939 ] } },
{ "type": "Feature", "properties": { "comment": null, "contact:phone": null, "description": null, "name": "Салон-парикмахерская", "name:en": null, "name:ru": null, "opening_hours": "Mo-Su 09:00-20:00", "phone": "345-345", "shop": "hairdresser", "source": "image" }, "geometry": { "type": "Point", "coordinates": [ 131.931659, 43.168814 ] } },
{ "type": "Feature", "properties": { "comment": null, "contact:phone": null, "description": null, "name": "Жемчужина", "name:en": "pearl", "name:ru": null, "opening_hours": null, "phone": null, "shop": "hairdresser", "source": null }, "geometry": { "type": "Point", "coordinates": [ 131.924457, 43.169502 ] } },
{ "type": "Feature", "properties": { "comment": null, "contact:phone": null, "description": null, "name": null, "name:en": null, "name:ru": null, "opening_hours": null, "phone": null, "shop": "hairdresser", "source": null }, "geometry": { "type": "Point", "coordinates": [ 131.935911, 43.098827 ] } },
{ "type": "Feature", "properties": { "comment": null, "contact:phone": null, "description": null, "name": null, "name:en": null, "name:ru": null, "opening_hours": null, "phone": null, "shop": "hairdresser", "source": null }, "geometry": { "type": "Point", "coordinates": [ 131.930985, 43.100201 ] } },
{ "type": "Feature", "properties": { "comment": null, "contact:phone": null, "description": null, "name": null, "name:en": null, "name:ru": null, "opening_hours": null, "phone": null, "shop": "hairdresser", "source": null }, "geometry": { "type": "Point", "coordinates": [ 131.932752, 43.100471 ] } },
{ "type": "Feature", "properties": { "comment": null, "contact:phone": null, "description": "Салон парикмахерская", "name": "Яшма", "name:en": null, "name:ru": null, "opening_hours": null, "phone": null, "shop": "hairdresser", "source": "image" }, "geometry": { "type": "Point", "coordinates": [ 131.965826, 43.091698 ] } },
{ "type": "Feature", "properties": { "comment": null, "contact:phone": null, "description": null, "name": "Ваш стиль", "name:en": null, "name:ru": null, "opening_hours": null, "phone": "544-116", "shop": "hairdresser", "source": "image" }, "geometry": { "type": "Point", "coordinates": [ 131.940678, 43.109138 ] } },
{ "type": "Feature", "properties": { "comment": null, "contact:phone": null, "description": null, "name": "Парикмахерская, косметолог", "name:en": null, "name:ru": null, "opening_hours": null, "phone": "97-89-12", "shop": "hairdresser", "source": "image" }, "geometry": { "type": "Point", "coordinates": [ 131.937722, 43.111628 ] } },
{ "type": "Feature", "properties": { "comment": null, "contact:phone": null, "description": null, "name": "Имидж студия \"LS\"", "name:en": null, "name:ru": null, "opening_hours": null, "phone": null, "shop": "hairdresser", "source": null }, "geometry": { "type": "Point", "coordinates": [ 131.908569, 43.115198 ] } },
{ "type": "Feature", "properties": { "comment": null, "contact:phone": null, "description": null, "name": "Очарование", "name:en": null, "name:ru": null, "opening_hours": null, "phone": null, "shop": "hairdresser", "source": null }, "geometry": { "type": "Point", "coordinates": [ 131.903498, 43.098641 ] } },
{ "type": "Feature", "properties": { "comment": null, "contact:phone": null, "description": null, "name": "Персона", "name:en": null, "name:ru": null, "opening_hours": null, "phone": null, "shop": "hairdresser", "source": "knowledge" }, "geometry": { "type": "Point", "coordinates": [ 131.912723, 43.159283 ] } },
{ "type": "Feature", "properties": { "comment": null, "contact:phone": null, "description": null, "name": null, "name:en": null, "name:ru": null, "opening_hours": null, "phone": null, "shop": "hairdresser", "source": "knowledge" }, "geometry": { "type": "Point", "coordinates": [ 131.912839, 43.158473 ] } },
{ "type": "Feature", "properties": { "comment": null, "contact:phone": null, "description": null, "name": null, "name:en": null, "name:ru": null, "opening_hours": null, "phone": null, "shop": "hairdresser", "source": null }, "geometry": { "type": "Point", "coordinates": [ 131.916238, 43.152557 ] } },
{ "type": "Feature", "properties": { "comment": null, "contact:phone": null, "description": null, "name": "Лаки", "name:en": null, "name:ru": null, "opening_hours": null, "phone": null, "shop": "hairdresser", "source": null }, "geometry": { "type": "Point", "coordinates": [ 131.942556, 43.113931 ] } },
{ "type": "Feature", "properties": { "comment": null, "contact:phone": null, "description": null, "name": "парикмахерская", "name:en": null, "name:ru": null, "opening_hours": null, "phone": null, "shop": "hairdresser", "source": null }, "geometry": { "type": "Point", "coordinates": [ 131.931542, 43.177357 ] } },
{ "type": "Feature", "properties": { "comment": null, "contact:phone": null, "description": null, "name": "салон красоты", "name:en": null, "name:ru": null, "opening_hours": null, "phone": null, "shop": "hairdresser", "source": null }, "geometry": { "type": "Point", "coordinates": [ 131.931526, 43.176809 ] } },
{ "type": "Feature", "properties": { "comment": null, "contact:phone": null, "description": null, "name": "Звезда", "name:en": null, "name:ru": null, "opening_hours": null, "phone": null, "shop": "hairdresser", "source": null }, "geometry": { "type": "Point", "coordinates": [ 131.932373, 43.170906 ] } },
{ "type": "Feature", "properties": { "comment": null, "contact:phone": null, "description": null, "name": "Ютэс", "name:en": null, "name:ru": null, "opening_hours": "Mo-Su 10:00-20:00", "phone": null, "shop": "hairdresser", "source": "image" }, "geometry": { "type": "Point", "coordinates": [ 131.882716, 43.113675 ] } },
{ "type": "Feature", "properties": { "comment": null, "contact:phone": null, "description": null, "name": null, "name:en": null, "name:ru": null, "opening_hours": null, "phone": null, "shop": "hairdresser", "source": "image" }, "geometry": { "type": "Point", "coordinates": [ 131.927446, 43.092516 ] } },
{ "type": "Feature", "properties": { "comment": null, "contact:phone": "241-38-72", "description": null, "name": "Золотая рыбка", "name:en": null, "name:ru": null, "opening_hours": "Mo-Su 09:00-19:00", "phone": null, "shop": "hairdresser", "source": "knowledge" }, "geometry": { "type": "Point", "coordinates": [ 131.881567, 43.11415 ] } },
{ "type": "Feature", "properties": { "comment": null, "contact:phone": null, "description": null, "name": "Саломея", "name:en": null, "name:ru": null, "opening_hours": null, "phone": null, "shop": "hairdresser", "source": null }, "geometry": { "type": "Point", "coordinates": [ 131.944475, 43.1198 ] } },
{ "type": "Feature", "properties": { "comment": null, "contact:phone": null, "description": null, "name": "Имидж", "name:en": null, "name:ru": null, "opening_hours": null, "phone": null, "shop": "hairdresser", "source": "image" }, "geometry": { "type": "Point", "coordinates": [ 131.939259, 43.127989 ] } },
{ "type": "Feature", "properties": { "comment": null, "contact:phone": null, "description": null, "name": "Галина", "name:en": null, "name:ru": null, "opening_hours": "Mo-Su 08:00-19:00", "phone": null, "shop": "hairdresser", "source": "survey" }, "geometry": { "type": "Point", "coordinates": [ 131.862748, 43.09508 ] } },
{ "type": "Feature", "properties": { "comment": null, "contact:phone": "2-367-993", "description": null, "name": null, "name:en": null, "name:ru": null, "opening_hours": null, "phone": null, "shop": "hairdresser", "source": "image" }, "geometry": { "type": "Point", "coordinates": [ 131.905673, 43.149496 ] } },
{ "type": "Feature", "properties": { "comment": null, "contact:phone": null, "description": null, "name": "Чарли", "name:en": null, "name:ru": null, "opening_hours": null, "phone": null, "shop": "hairdresser", "source": "photo" }, "geometry": { "type": "Point", "coordinates": [ 131.900616, 43.132202 ] } },
{ "type": "Feature", "properties": { "comment": null, "contact:phone": null, "description": null, "name": "Helen", "name:en": null, "name:ru": null, "opening_hours": "Mo-Su 09:00-20:00", "phone": null, "shop": "hairdresser", "source": "image" }, "geometry": { "type": "Point", "coordinates": [ 131.888223, 43.11471 ] } },
{ "type": "Feature", "properties": { "comment": null, "contact:phone": null, "description": null, "name": "Аня", "name:en": null, "name:ru": null, "opening_hours": null, "phone": null, "shop": "hairdresser", "source": "image" }, "geometry": { "type": "Point", "coordinates": [ 131.905258, 43.164992 ] } },
{ "type": "Feature", "properties": { "comment": null, "contact:phone": null, "description": null, "name": "Наташа", "name:en": null, "name:ru": null, "opening_hours": null, "phone": null, "shop": "hairdresser", "source": "image" }, "geometry": { "type": "Point", "coordinates": [ 131.905992, 43.165216 ] } },
{ "type": "Feature", "properties": { "comment": null, "contact:phone": null, "description": null, "name": null, "name:en": null, "name:ru": null, "opening_hours": null, "phone": null, "shop": "hairdresser", "source": "knowleadge" }, "geometry": { "type": "Point", "coordinates": [ 131.906051, 43.164434 ] } },
{ "type": "Feature", "properties": { "comment": null, "contact:phone": null, "description": null, "name": null, "name:en": null, "name:ru": null, "opening_hours": null, "phone": null, "shop": "hairdresser", "source": "image" }, "geometry": { "type": "Point", "coordinates": [ 131.905178, 43.164484 ] } },
{ "type": "Feature", "properties": { "comment": null, "contact:phone": null, "description": null, "name": "Гранж", "name:en": null, "name:ru": null, "opening_hours": null, "phone": null, "shop": "hairdresser", "source": "image" }, "geometry": { "type": "Point", "coordinates": [ 131.922625, 43.112599 ] } },
{ "type": "Feature", "properties": { "comment": null, "contact:phone": null, "description": null, "name": null, "name:en": null, "name:ru": null, "opening_hours": null, "phone": null, "shop": "hairdresser", "source": "openstreetbugs" }, "geometry": { "type": "Point", "coordinates": [ 131.921871, 43.112066 ] } },
{ "type": "Feature", "properties": { "comment": null, "contact:phone": null, "description": null, "name": "Владимир", "name:en": "Vladimir", "name:ru": "Владимир", "opening_hours": "Mo-Sa 08:00-19:00", "phone": null, "shop": "hairdresser", "source": "image" }, "geometry": { "type": "Point", "coordinates": [ 131.882812, 43.116862 ] } },
{ "type": "Feature", "properties": { "comment": null, "contact:phone": null, "description": null, "name": "СеЛена", "name:en": null, "name:ru": null, "opening_hours": "Mo-Su 9:00-20:00", "phone": null, "shop": "hairdresser", "source": "image" }, "geometry": { "type": "Point", "coordinates": [ 131.938247, 43.106798 ] } },
{ "type": "Feature", "properties": { "comment": null, "contact:phone": null, "description": null, "name": null, "name:en": null, "name:ru": null, "opening_hours": null, "phone": null, "shop": "hairdresser", "source": null }, "geometry": { "type": "Point", "coordinates": [ 131.909362, 43.172637 ] } },
{ "type": "Feature", "properties": { "comment": null, "contact:phone": null, "description": null, "name": "Арамис", "name:en": null, "name:ru": null, "opening_hours": "Mo-Su 09:00-20:00", "phone": null, "shop": "hairdresser", "source": null }, "geometry": { "type": "Point", "coordinates": [ 131.940978, 43.099513 ] } },
{ "type": "Feature", "properties": { "comment": null, "contact:phone": null, "description": null, "name": "Соната", "name:en": null, "name:ru": null, "opening_hours": null, "phone": "2639486", "shop": "hairdresser", "source": "image" }, "geometry": { "type": "Point", "coordinates": [ 131.9431, 43.10094 ] } },
{ "type": "Feature", "properties": { "comment": null, "contact:phone": null, "description": null, "name": null, "name:en": null, "name:ru": null, "opening_hours": null, "phone": null, "shop": "hairdresser", "source": "image" }, "geometry": { "type": "Point", "coordinates": [ 131.900525, 43.130043 ] } },
{ "type": "Feature", "properties": { "comment": null, "contact:phone": null, "description": null, "name": "Парикмакерская", "name:en": null, "name:ru": null, "opening_hours": null, "phone": null, "shop": "hairdresser", "source": null }, "geometry": { "type": "Point", "coordinates": [ 131.913849, 43.14543 ] } },
{ "type": "Feature", "properties": { "comment": null, "contact:phone": null, "description": null, "name": "Сабрина", "name:en": null, "name:ru": null, "opening_hours": null, "phone": null, "shop": "hairdresser", "source": null }, "geometry": { "type": "Point", "coordinates": [ 131.917677, 43.13235 ] } },
{ "type": "Feature", "properties": { "comment": "салон красоты", "contact:phone": null, "description": null, "name": "Dolce Vita", "name:en": null, "name:ru": null, "opening_hours": null, "phone": null, "shop": "hairdresser", "source": null }, "geometry": { "type": "Point", "coordinates": [ 131.862992, 43.093433 ] } },
{ "type": "Feature", "properties": { "comment": null, "contact:phone": null, "description": null, "name": null, "name:en": null, "name:ru": null, "opening_hours": null, "phone": null, "shop": "hairdresser", "source": null }, "geometry": { "type": "Point", "coordinates": [ 131.885399, 43.120232 ] } },
{ "type": "Feature", "properties": { "comment": null, "contact:phone": null, "description": "в киоске", "name": null, "name:en": null, "name:ru": null, "opening_hours": null, "phone": null, "shop": "hairdresser", "source": "osm bugs" }, "geometry": { "type": "Point", "coordinates": [ 131.936573, 43.112547 ] } },
{ "type": "Feature", "properties": { "comment": null, "contact:phone": null, "description": "китайцы", "name": null, "name:en": null, "name:ru": null, "opening_hours": null, "phone": null, "shop": "hairdresser", "source": "osm bugs" }, "geometry": { "type": "Point", "coordinates": [ 131.936473, 43.112931 ] } },
{ "type": "Feature", "properties": { "comment": null, "contact:phone": null, "description": null, "name": "Блеск", "name:en": "shine", "name:ru": "Блеск", "opening_hours": "Mo-Su 09:00-20:00", "phone": null, "shop": "hairdresser", "source": "osm bugs" }, "geometry": { "type": "Point", "coordinates": [ 131.939061, 43.1121 ] } },
{ "type": "Feature", "properties": { "comment": null, "contact:phone": null, "description": null, "name": "Стилист", "name:en": null, "name:ru": null, "opening_hours": null, "phone": "266-19-38;266-19-23", "shop": "hairdresser", "source": "notes" }, "geometry": { "type": "Point", "coordinates": [ 131.911721, 43.11513 ] } },
{ "type": "Feature", "properties": { "comment": null, "contact:phone": null, "description": null, "name": "AVIstudio", "name:en": null, "name:ru": null, "opening_hours": "Mo-Su 09:00-20:00", "phone": null, "shop": "hairdresser", "source": "notes" }, "geometry": { "type": "Point", "coordinates": [ 131.908483, 43.115688 ] } },
{ "type": "Feature", "properties": { "comment": null, "contact:phone": null, "description": null, "name": null, "name:en": null, "name:ru": null, "opening_hours": null, "phone": null, "shop": "hairdresser", "source": null }, "geometry": { "type": "Point", "coordinates": [ 131.896701, 43.094324 ] } },
{ "type": "Feature", "properties": { "comment": null, "contact:phone": null, "description": null, "name": "Сакура", "name:en": null, "name:ru": null, "opening_hours": "09:00-20:00", "phone": null, "shop": "hairdresser", "source": null }, "geometry": { "type": "Point", "coordinates": [ 131.897507, 43.095422 ] } },
{ "type": "Feature", "properties": { "comment": null, "contact:phone": null, "description": null, "name": null, "name:en": null, "name:ru": null, "opening_hours": null, "phone": null, "shop": "hairdresser", "source": null }, "geometry": { "type": "Point", "coordinates": [ 131.89579, 43.094605 ] } },
{ "type": "Feature", "properties": { "comment": null, "contact:phone": null, "description": null, "name": null, "name:en": null, "name:ru": null, "opening_hours": null, "phone": null, "shop": "hairdresser", "source": null }, "geometry": { "type": "Point", "coordinates": [ 131.895655, 43.094959 ] } },
{ "type": "Feature", "properties": { "comment": null, "contact:phone": null, "description": null, "name": "Джулия", "name:en": null, "name:ru": null, "opening_hours": null, "phone": "225-65-10", "shop": "hairdresser", "source": "image" }, "geometry": { "type": "Point", "coordinates": [ 131.966728, 43.093594 ] } },
{ "type": "Feature", "properties": { "comment": null, "contact:phone": null, "description": null, "name": null, "name:en": null, "name:ru": null, "opening_hours": null, "phone": null, "shop": "hairdresser", "source": "image" }, "geometry": { "type": "Point", "coordinates": [ 131.959255, 43.095919 ] } },
{ "type": "Feature", "properties": { "comment": null, "contact:phone": null, "description": null, "name": "Какаду", "name:en": null, "name:ru": null, "opening_hours": null, "phone": null, "shop": "hairdresser", "source": "image" }, "geometry": { "type": "Point", "coordinates": [ 131.956928, 43.093445 ] } },
{ "type": "Feature", "properties": { "comment": null, "contact:phone": null, "description": "мужской, женский зал. Маникюр, педикюр, наращивание и дизайн ногтей, косметический кабинет", "name": "Star", "name:en": null, "name:ru": null, "opening_hours": "Mo-Su 09:00-20:00", "phone": null, "shop": "hairdresser", "source": "image" }, "geometry": { "type": "Point", "coordinates": [ 131.970203, 43.090977 ] } },
{ "type": "Feature", "properties": { "comment": null, "contact:phone": null, "description": null, "name": "Парикмахерский магазин", "name:en": null, "name:ru": null, "opening_hours": null, "phone": null, "shop": "hairdresser", "source": "image" }, "geometry": { "type": "Point", "coordinates": [ 131.971487, 43.091841 ] } },
{ "type": "Feature", "properties": { "comment": null, "contact:phone": null, "description": null, "name": "Магия звёзд", "name:en": null, "name:ru": null, "opening_hours": "Mo-Su 10:00-19:00", "phone": "297-82-96", "shop": "hairdresser", "source": "image" }, "geometry": { "type": "Point", "coordinates": [ 131.974391, 43.095833 ] } },
{ "type": "Feature", "properties": { "comment": null, "contact:phone": null, "description": null, "name": "Имидж сервис", "name:en": null, "name:ru": null, "opening_hours": null, "phone": null, "shop": "hairdresser", "source": "image" }, "geometry": { "type": "Point", "coordinates": [ 131.966989, 43.08991 ] } },
{ "type": "Feature", "properties": { "comment": null, "contact:phone": null, "description": null, "name": "Джоли", "name:en": null, "name:ru": null, "opening_hours": null, "phone": "2480891", "shop": "hairdresser", "source": "image" }, "geometry": { "type": "Point", "coordinates": [ 131.947957, 43.097755 ] } },
{ "type": "Feature", "properties": { "comment": null, "contact:phone": null, "description": null, "name": "Парикмахер", "name:en": null, "name:ru": null, "opening_hours": null, "phone": "2710694;2678952", "shop": "hairdresser", "source": "image" }, "geometry": { "type": "Point", "coordinates": [ 131.950733, 43.096162 ] } },
{ "type": "Feature", "properties": { "comment": null, "contact:phone": null, "description": null, "name": "Изабель", "name:en": null, "name:ru": null, "opening_hours": "Mo-Su 10:00-19:00", "phone": null, "shop": "hairdresser", "source": "image" }, "geometry": { "type": "Point", "coordinates": [ 131.965945, 43.092427 ] } },
{ "type": "Feature", "properties": { "comment": null, "contact:phone": null, "description": null, "name": "Катрин", "name:en": null, "name:ru": null, "opening_hours": "Mo-Su 10:00-19:00", "phone": "251-10-26", "shop": "hairdresser", "source": "image" }, "geometry": { "type": "Point", "coordinates": [ 131.965503, 43.092686 ] } },
{ "type": "Feature", "properties": { "comment": null, "contact:phone": null, "description": null, "name": null, "name:en": null, "name:ru": null, "opening_hours": null, "phone": null, "shop": "hairdresser", "source": "notes" }, "geometry": { "type": "Point", "coordinates": [ 131.971772, 43.092249 ] } },
{ "type": "Feature", "properties": { "comment": null, "contact:phone": null, "description": null, "name": "Парикмахерская", "name:en": null, "name:ru": "Парикмахерская", "opening_hours": null, "phone": "276-98-02", "shop": "hairdresser", "source": "image" }, "geometry": { "type": "Point", "coordinates": [ 131.9688, 43.090112 ] } },
{ "type": "Feature", "properties": { "comment": null, "contact:phone": null, "description": null, "name": "Ателье мод", "name:en": null, "name:ru": null, "opening_hours": null, "phone": null, "shop": "hairdresser", "source": "image" }, "geometry": { "type": "Point", "coordinates": [ 131.959985, 43.091591 ] } },
{ "type": "Feature", "properties": { "comment": null, "contact:phone": null, "description": null, "name": "Элен", "name:en": null, "name:ru": null, "opening_hours": null, "phone": null, "shop": "hairdresser", "source": null }, "geometry": { "type": "Point", "coordinates": [ 131.968822, 43.090899 ] } },
{ "type": "Feature", "properties": { "comment": null, "contact:phone": null, "description": null, "name": "Домино", "name:en": null, "name:ru": null, "opening_hours": "Mo-Su 09:00-19:00", "phone": null, "shop": "hairdresser", "source": "notes" }, "geometry": { "type": "Point", "coordinates": [ 131.902815, 43.135331 ] } },
{ "type": "Feature", "properties": { "comment": null, "contact:phone": null, "description": null, "name": "Татьяна", "name:en": null, "name:ru": null, "opening_hours": null, "phone": null, "shop": "hairdresser", "source": null }, "geometry": { "type": "Point", "coordinates": [ 131.946322, 43.115418 ] } },
{ "type": "Feature", "properties": { "comment": null, "contact:phone": null, "description": null, "name": "Камея", "name:en": null, "name:ru": "Камея", "opening_hours": null, "phone": null, "shop": "hairdresser", "source": null }, "geometry": { "type": "Point", "coordinates": [ 131.922837, 43.124187 ] } },
{ "type": "Feature", "properties": { "comment": null, "contact:phone": null, "description": null, "name": null, "name:en": null, "name:ru": null, "opening_hours": null, "phone": null, "shop": "hairdresser", "source": null }, "geometry": { "type": "Point", "coordinates": [ 131.923207, 43.127269 ] } },
{ "type": "Feature", "properties": { "comment": null, "contact:phone": null, "description": null, "name": "Добро", "name:en": null, "name:ru": null, "opening_hours": null, "phone": null, "shop": "hairdresser", "source": "knowledge" }, "geometry": { "type": "Point", "coordinates": [ 131.887465, 43.11614 ] } },
{ "type": "Feature", "properties": { "comment": null, "contact:phone": null, "description": null, "name": null, "name:en": null, "name:ru": null, "opening_hours": null, "phone": null, "shop": "hairdresser", "source": null }, "geometry": { "type": "Point", "coordinates": [ 131.89688, 43.130633 ] } },
{ "type": "Feature", "properties": { "comment": null, "contact:phone": null, "description": null, "name": "Белая ночь", "name:en": "WhiteNight", "name:ru": null, "opening_hours": null, "phone": null, "shop": "hairdresser", "source": null }, "geometry": { "type": "Point", "coordinates": [ 131.954743, 43.107102 ] } },
{ "type": "Feature", "properties": { "comment": null, "contact:phone": null, "description": null, "name": "Александрия", "name:en": null, "name:ru": null, "opening_hours": "Mo-Sa 09:00-19:00", "phone": null, "shop": "hairdresser", "source": "image" }, "geometry": { "type": "Point", "coordinates": [ 131.945844, 43.12502 ] } },
{ "type": "Feature", "properties": { "comment": null, "contact:phone": null, "description": null, "name": null, "name:en": null, "name:ru": null, "opening_hours": null, "phone": null, "shop": "hairdresser", "source": null }, "geometry": { "type": "Point", "coordinates": [ 131.920096, 43.169097 ] } },
{ "type": "Feature", "properties": { "comment": null, "contact:phone": null, "description": null, "name": "Богема", "name:en": null, "name:ru": null, "opening_hours": "Mo-Su 09:00-18:00", "phone": null, "shop": "hairdresser", "source": null }, "geometry": { "type": "Point", "coordinates": [ 131.931234, 43.100587 ] } },
{ "type": "Feature", "properties": { "comment": null, "contact:phone": null, "description": null, "name": "Вирджиния", "name:en": null, "name:ru": null, "opening_hours": "Mo-Su 10:00-20:00", "phone": null, "shop": "hairdresser", "source": null }, "geometry": { "type": "Point", "coordinates": [ 131.916551, 43.125196 ] } },
{ "type": "Feature", "properties": { "comment": null, "contact:phone": null, "description": null, "name": null, "name:en": null, "name:ru": null, "opening_hours": null, "phone": null, "shop": "hairdresser", "source": null }, "geometry": { "type": "Point", "coordinates": [ 131.949488, 43.092188 ] } },
{ "type": "Feature", "properties": { "comment": null, "contact:phone": null, "description": null, "name": null, "name:en": null, "name:ru": null, "opening_hours": null, "phone": null, "shop": "hairdresser", "source": null }, "geometry": { "type": "Point", "coordinates": [ 131.949223, 43.091531 ] } },
{ "type": "Feature", "properties": { "comment": null, "contact:phone": null, "description": null, "name": null, "name:en": null, "name:ru": null, "opening_hours": null, "phone": null, "shop": "hairdresser", "source": null }, "geometry": { "type": "Point", "coordinates": [ 131.893899, 43.097209 ] } },
{ "type": "Feature", "properties": { "comment": null, "contact:phone": null, "description": null, "name": null, "name:en": null, "name:ru": null, "opening_hours": null, "phone": null, "shop": "hairdresser", "source": null }, "geometry": { "type": "Point", "coordinates": [ 131.892401, 43.093363 ] } },
{ "type": "Feature", "properties": { "comment": null, "contact:phone": null, "description": null, "name": null, "name:en": null, "name:ru": null, "opening_hours": null, "phone": null, "shop": "hairdresser", "source": null }, "geometry": { "type": "Point", "coordinates": [ 131.896821, 43.094476 ] } }
]
}
